t_s,height_cm,roll_deg,pitch_deg,yaw_deg,batt_%,accel_x,temp_c,speed_cm_s,vz_cm_s
0.01,0.0,0,0,0,58,0,0,0.0,0.0
0.23,0.0,0,0,0,58,-4,40.93,3400.0,0.0
0.44,0.0,0,0,0,58,-4,40.93,3400.0,0.0
0.65,0.0,0,0,0,55,0,40.84,63600.0,0.0
0.87,3.4,0,0,0,54,10,40.79,4925.4441424099,15.791912153916686
1.08,3.4,0,0,0,53,-11,40.79,4925.4441424099,0.0
1.3,4.4,0,21,0,53,2,40.79,4925.4441424099,4.682485936256272
1.51,4.4,0,7,0,52,-7,40.58,34033.07215048327,0.0
1.72,4.4,0,4,0,51,-7,40.58,30404.111564063172,0.0
1.94,4.4,1,3,0,51,-10,40.5,24503.265088555036,0.0
2.15,4.4,1,-7,0,51,-16,40.46,71805.64044697325,0.0
2.36,4.4,0,-21,0,52,-27,40.41,25068.306683938587,0.0
2.58,4.4,0,-21,0,52,-27,40.41,25068.306683938587,0.0
2.79,55.9,0,-21,0,51,1,40.36,21503.720608304044,240.62151513362437
3.01,58.6,0,-3,0,51,1,40.36,21503.720608304044,12.614405966897367
3.21,58.6,0,-3,0,51,1,40.36,22641.99637841151,0.0
3.43,58.6,0,-3,0,51,1,40.36,23879.907872519107,0.0
3.64,58.6,0,-3,0,51,1,40.36,23879.907872519107,0.0
3.86,999.9,0,-3,0,51,1,40.36,22800.877176108817,4379.015361886434
4.07,999.9,0,-3,0,53,1,40.36,6184.658438426491,0.0
4.28,999.9,0,-3,30,53,0,40.36,8215.229759416348,0.0
4.5,999.9,0,1,33,51,-3,40.36,8215.229759416348,0.0
4.72,999.9,0,3,34,50,-2,40.12,7616.429609731846,0.0
4.93,999.9,2,21,34,50,-2,40.12,20400.0,0.0
5.15,999.9,2,15,33,50,-13,40.12,20400.0,0.0
5.36,999.9,1,15,33,50,-13,40.12,21302.112571292077,0.0
5.58,999.9,1,15,33,46,-13,40.12,22302.01784592596,0.0
5.79,999.9,1,15,45,46,-12,40.12,22302.01784592596,0.0
6.01,999.9,-14,-1,74,46,-21,40.05,59169.24876994806,0.0
6.22,999.9,-17,0,81,46,-21,40.05,59169.24876994806,0.0
6.44,999.9,-17,0,81,46,-21,40.05,59169.24876994806,0.0
6.65,999.9,-17,0,81,46,-21,40.05,35709.94259306503,0.0
6.87,999.9,-17,0,81,46,-21,40.04,35709.94259306503,0.0
7.09,999.9,-17,0,81,46,-21,40.04,35709.94259306503,0.0
7.3,999.9,-17,0,81,43,-21,40.04,35709.94259306503,0.0
7.51,999.9,-17,0,81,43,-21,40.04,35709.94259306503,0.0
7.73,999.9,-17,0,-129,43,-8,40.02,29233.542378576018,0.0
7.95,999.9,-2,7,-129,43,-8,40.0,65600.07621946791,0.0
8.16,999.9,-2,7,-94,42,-11,39.97,18874.321179846444,0.0
8.38,999.9,8,-1,-90,41,-11,39.97,19292.485583770693,0.0
8.59,999.9,8,-1,-90,41,-11,39.96,17836.199146679206,0.0
8.8,75.6,8,-1,-90,41,-11,39.96,26249.761903682098,-4347.586650398334
9.02,69.3,-8,8,9,41,-13,39.96,27713.71501621535,-29.53583339108428
9.23,69.3,-7,21,10,41,7,39.96,43488.50422812907,0.0
9.45,69.3,-2,17,10,41,-7,39.96,43488.50422812907,0.0
9.67,69.3,0,16,16,39,-13,39.96,43488.50422812907,0.0
9.88,999.9,0,18,37,39,-12,39.96,43488.50422812907,4397.448544293102
10.09,999.9,-2,18,37,39,-15,39.96,61285.64269060087,0.0
10.3,999.9,-1,2,41,39,-15,39.96,61285.64269060087,0.0
10.51,999.9,-1,2,41,39,-10,39.83,33455.19391664021,0.0
10.73,999.9,-2,-9,41,39,-6,39.82,23719.190542680837,0.0
10.95,999.9,-1,-9,42,39,-6,39.82,23719.190542680837,0.0
11.16,999.9,-1,-9,42,38,-6,39.82,23719.190542680837,0.0
11.38,999.9,-1,-9,42,38,-6,39.82,23719.190542680837,0.0
11.59,85.1,0,-5,41,38,-5,39.82,14940.548852033515,-4192.218888943518
11.81,85.1,0,-5,41,38,-1,39.78,24176.02117801852,0.0
12.02,85.1,0,21,41,38,-4,39.78,24176.02117801852,0.0
12.23,999.9,1,21,41,38,3,39.78,24176.02117801852,4344.67201561702
12.45,999.9,1,18,41,38,-9,39.77,24176.02117801852,0.0
12.66,999.9,2,3,41,38,-9,39.78,25601.75775215444,0.0
12.87,999.9,1,-5,41,38,-4,39.78,25601.75775215444,0.0
13.08,999.9,1,-5,41,38,-4,39.78,2009.975124224178,0.0
13.3,999.9,1,-5,41,38,-4,39.8,37106.603185956,0.0
13.51,999.9,1,-5,41,38,-4,39.8,37113.47464196798,0.0
13.73,999.9,1,-5,41,38,-4,39.8,37113.47464196798,0.0
13.95,999.9,1,-5,41,38,-4,39.8,16614.752480852672,0.0
14.16,999.9,4,0,41,36,-11,39.83,12788.27588066507,0.0
14.38,999.9,4,0,42,36,-3,39.83,7454.528824815154,0.0
14.6,999.9,4,0,42,36,6,39.82,69745.25073436901,0.0
14.82,999.9,3,1,42,36,8,39.81,32103.89384482823,0.0
15.03,999.9,3,3,41,36,-6,39.82,23200.86205294967,0.0
15.25,999.9,2,1,42,36,4,39.82,360.5551275463989,0.0
15.46,999.9,2,1,42,36,-14,39.83,59357.897536890574,0.0
15.67,999.9,2,2,41,36,3,39.85,223.60679774997897,0.0
15.89,999.9,3,2,41,36,3,39.85,2140.09345590327,0.0
16.11,999.9,2,2,41,35,-11,39.85,37643.59175211632,0.0
16.32,999.9,2,2,42,35,-7,39.87,37980.258029665885,0.0
16.54,999.9,3,3,42,35,2,39.87,23641.488954801473,0.0
16.75,999.9,2,1,42,35,-1,39.87,6552.098900352466,0.0
16.97,999.9,1,1,45,35,-10,39.87,6552.098900352466,0.0
17.18,999.9,1,2,67,36,-7,39.87,6552.098900352466,0.0
17.39,999.9,1,2,96,36,2,39.87,6552.098900352466,0.0
17.6,999.9,2,4,127,36,4,39.85,6552.098900352466,0.0
17.81,999.9,1,4,127,35,11,39.85,16796.725871431016,0.0
18.03,999.9,0,25,166,35,11,39.85,82311.90679361037,0.0
18.24,999.9,0,25,-176,35,-15,39.81,22514.439810930227,0.0
18.46,999.9,-1,18,-178,34,-8,39.82,22907.20410700529,0.0
18.67,999.9,0,16,-179,34,-10,39.82,22740.71238989667,0.0
18.88,999.9,0,14,179,34,-22,39.82,37445.69401146145,0.0
19.1,999.9,1,13,167,34,-11,39.82,26293.15500277591,0.0
19.31,999.9,8,14,137,34,-27,39.82,26293.15500277591,0.0
19.53,999.9,8,14,137,34,-27,39.82,59020.33547854502,0.0
19.74,999.9,8,14,137,34,-27,39.82,57484.954553343785,0.0
19.96,999.9,27,13,19,35,5,39.78,24447.699278255204,0.0
20.17,999.9,23,12,-9,35,0,39.78,24447.699278255204,0.0
20.38,999.9,9,9,-19,35,4,39.78,24447.699278255204,0.0
20.6,999.9,9,9,-19,35,-4,39.78,16113.658802394943,0.0
20.82,999.9,9,4,-24,35,-4,39.78,16906.803364326446,0.0
21.03,999.9,9,4,-24,35,-4,39.78,16906.803364326446,0.0
21.24,999.9,9,14,-23,34,2,39.78,6319.810123729984,0.0
21.46,74.9,0,16,-23,34,-5,39.78,8700.0,-4283.7155636623
21.67,73.2,0,16,-23,34,-12,39.81,36100.55401236939,-7.82512532813585
21.89,999.9,0,13,-23,34,-12,39.81,35916.848414079985,4306.165799161779
22.1,999.9,0,13,-23,34,-13,39.81,13644.4127759314,0.0
22.31,999.9,1,17,-23,34,-13,39.81,13644.4127759314,0.0
22.53,999.9,1,17,-23,34,-13,39.81,13644.4127759314,0.0
22.75,999.9,1,17,-23,34,-13,39.81,41323.23801446348,0.0
22.96,999.9,1,17,23,34,-16,39.75,43200.92591600324,0.0
23.17,999.9,-6,-13,27,34,-16,39.75,43200.92591600324,0.0
23.38,999.9,-6,-13,27,34,2,39.75,41074.56633976797,0.0
23.6,999.9,-9,10,117,34,7,39.75,38093.17524176739,0.0
23.81,999.9,-6,11,154,33,5,39.69,13509.256086106296,0.0
24.03,999.9,-5,10,157,33,5,39.69,18036.90660839602,0.0
24.24,999.9,1,0,172,34,0,39.67,10756.393447619885,0.0
24.46,999.9,1,-1,172,34,1,39.67,10756.393447619885,0.0
24.67,999.9,1,-1,172,34,-6,39.66,10756.393447619885,0.0
24.89,999.9,0,19,172,33,-12,39.66,9183.13671900838,0.0
25.1,999.9,0,19,172,33,-12,39.66,9183.13671900838,0.0
25.32,65.6,0,19,172,33,-21,39.63,45107.094785632115,-4350.228712761375
25.53,65.6,-2,-5,172,32,-6,39.61,37400.13368960063,0.0
25.75,999.9,-1,-13,171,32,-8,39.59,7200.694410957876,4432.169620361971
25.96,999.9,0,-9,171,32,-10,39.59,7200.694410957876,0.0
26.18,999.9,0,-9,171,32,-10,39.59,7200.694410957876,0.0
26.39,999.9,0,-9,171,32,-10,39.59,7200.694410957876,0.0
26.61,999.9,0,19,172,33,-13,39.59,7206.2472896785885,0.0
26.82,999.9,0,19,171,33,-18,39.59,5907.622195096772,0.0
27.03,999.9,0,19,150,33,-13,39.59,5907.622195096772,0.0
27.24,999.9,8,19,115,33,-9,39.57,7605.9187479225675,0.0
27.45,999.9,8,4,77,33,-7,39.57,7605.9187479225675,0.0
27.66,999.9,11,3,77,33,-7,39.57,7605.9187479225675,0.0
27.88,999.9,11,3,77,33,-7,39.57,7605.9187479225675,0.0
28.09,999.9,11,3,77,33,-7,39.57,7605.9187479225675,0.0
28.3,999.9,11,3,77,33,-7,39.57,7605.9187479225675,0.0
28.51,999.9,5,21,-15,33,4,39.53,7605.9187479225675,0.0
28.73,999.9,5,21,-15,33,4,39.53,7605.9187479225675,0.0
28.95,999.9,5,21,-15,32,-14,39.53,7605.9187479225675,0.0
29.16,999.9,0,14,-7,32,-14,39.53,7605.9187479225675,0.0
29.37,999.9,1,19,11,32,-16,39.53,7605.9187479225675,0.0
29.59,999.9,1,19,11,32,-16,39.53,31701.41952657641,0.0
29.8,999.9,1,19,42,32,-22,39.53,37481.86228030833,0.0
30.02,999.9,-7,-2,67,33,-6,39.53,41324.08498684514,0.0
30.23,999.9,-12,4,104,33,3,39.53,41423.78543783752,0.0
30.45,999.9,-12,5,107,33,3,39.53,47031.2661960105,0.0
30.66,999.9,-12,5,107,33,3,39.53,47031.2661960105,0.0
30.88,999.9,-6,10,174,33,-1,39.53,47031.2661960105,0.0
31.1,999.9,-5,10,174,33,-1,39.53,23210.77336066164,0.0
31.31,999.9,-1,20,-178,33,-10,39.53,8720.66511224918,0.0
31.53,999.9,-4,15,-178,32,-7,39.47,27430.822080280424,0.0
31.74,999.9,-4,16,177,32,-6,39.47,27430.822080280424,0.0
31.95,999.9,2,16,177,32,-6,39.47,27430.822080280424,0.0
32.17,999.9,2,15,178,32,-30,39.47,27430.822080280424,0.0
32.39,999.9,1,15,178,32,-30,39.47,27430.822080280424,0.0
32.6,999.9,1,15,171,32,-22,39.47,27430.822080280424,0.0
32.81,999.9,3,-5,143,33,-24,39.47,27430.822080280424,0.0
33.03,999.9,4,-6,143,33,-24,39.4,85826.45279865644,0.0
33.24,999.9,16,-4,75,33,-4,39.4,85826.45279865644,0.0
33.46,999.9,17,-4,64,32,7,39.4,61727.222519727875,0.0
33.67,999.9,45,-3,37,32,75,39.4,72163.42563930845,0.0
33.88,999.9,45,-3,37,32,-7,39.3,87504.11418899114,0.0
34.1,999.9,69,-38,-138,32,-7,39.3,87504.11418899114,0.0
34.31,999.9,69,-38,-138,32,-7,39.3,87504.11418899114,0.0
34.53,24.7,69,-38,-138,32,-7,39.29,96732.20766631971,-4489.313392367163
34.74,24.7,69,6,-5,32,3,39.29,41600.48076645269,0.0
34.95,24.7,0,6,-4,32,3,39.29,41614.540727971515,0.0
35.17,24.7,0,6,-4,32,3,39.29,41614.540727971515,0.0
35.39,24.7,0,6,-4,32,3,39.29,41614.540727971515,0.0
35.6,24.7,0,3,68,31,-8,39.26,14921.796138535066,0.0
35.82,41.3,5,4,66,31,-9,39.26,14921.796138535066,76.27903805217726
36.03,41.3,5,4,66,31,-9,39.26,22135.265979879256,0.0
36.25,41.3,5,4,66,31,-9,39.27,22135.265979879256,0.0
36.46,41.3,5,4,63,30,-4,39.29,14008.925726121899,0.0
36.67,999.9,2,4,62,30,-7,39.29,14008.925726121899,4613.514937991683
36.88,999.9,2,4,62,30,-1,39.29,9903.534722511959,0.0
37.1,999.9,2,4,62,31,5,39.28,9903.534722511959,0.0
37.31,999.9,1,6,62,31,5,39.28,9903.534722511959,0.0
37.52,999.9,1,6,62,31,5,39.28,7710.382610480494,0.0
37.73,999.9,1,6,62,31,5,39.28,7710.382610480494,0.0
37.95,999.9,1,6,62,32,5,39.3,223.60679774997897,0.0
38.16,999.9,1,6,62,32,-5,39.3,1300.0,0.0
38.37,999.9,0,4,62,32,-7,39.3,1300.0,0.0
38.57,999.9,0,4,65,32,18,39.31,1300.0,0.0
38.78,999.9,0,3,66,32,-14,39.25,65745.11388688897,0.0
38.99,999.9,0,3,64,32,12,39.25,65745.11388688897,0.0
39.21,999.9,0,2,63,32,-10,39.25,1979.8989873223331,0.0
39.42,999.9,0,2,63,33,4,39.25,1979.8989873223331,0.0
39.64,999.9,0,2,61,33,-5,39.25,1979.8989873223331,0.0
39.85,999.9,0,2,61,33,-5,39.25,1979.8989873223331,0.0
40.07,999.9,0,2,61,33,-5,39.25,1979.8989873223331,0.0
40.29,999.9,0,2,61,33,-5,39.25,1979.8989873223331,0.0
40.5,999.9,0,2,61,33,-4,39.25,1979.8989873223331,0.0
40.72,999.9,2,2,65,34,1,39.25,7595.393340703297,0.0
40.93,999.9,0,2,86,34,-8,39.25,7595.393340703297,0.0
41.14,999.9,0,2,86,34,-8,39.25,11486.51383144599,0.0
41.36,999.9,0,2,118,34,-3,39.25,10068.7635785135,0.0
41.57,999.9,0,2,117,34,-2,39.24,10068.7635785135,0.0
41.78,999.9,1,0,100,34,-2,39.24,10068.7635785135,0.0
42.0,101.5,1,-3,40,34,-6,39.24,17528.548142958105,-4107.253451284606
42.21,91.6,1,-3,40,34,0,39.25,16022.484201895784,-46.25606790762961
42.43,91.6,4,-2,2,34,0,39.26,10818.964830333814,0.0
42.64,91.6,4,-2,2,34,0,39.26,10818.964830333814,0.0
42.86,92.3,4,-2,2,34,-4,39.31,19501.02561405425,3.207214891199873
43.07,999.9,0,19,-34,34,-12,39.32,53127.20583655798,4242.667416807281
43.29,999.9,0,-4,-32,34,-6,39.32,53127.20583655798,0.0
43.5,999.9,0,-3,-32,34,-6,39.32,15400.0,0.0
43.71,999.9,0,-5,-32,33,-2,39.31,16300.0,0.0
43.92,999.9,0,-5,-32,33,-2,39.31,16300.0,0.0
44.14,999.9,1,13,-33,33,-6,39.33,16300.0,0.0
44.35,999.9,1,15,-33,33,-3,39.33,14301.398533010679,0.0
44.56,999.9,1,15,-33,33,-3,39.33,14301.398533010679,0.0
44.78,999.9,2,14,-33,33,-10,39.33,15921.369287847072,0.0
44.99,999.9,2,10,-33,33,-2,39.33,60406.953242155825,0.0
45.21,999.9,0,8,-33,33,-20,39.33,60406.953242155825,0.0
45.41,999.9,0,-6,-33,33,-19,39.33,27800.71941515183,0.0
45.62,999.9,0,-8,-33,33,-3,39.3,27800.71941515183,0.0
45.83,999.9,0,-11,-44,33,-5,39.3,10778.682665335315,0.0
46.05,999.9,0,-10,-48,33,-5,39.3,10778.682665335315,0.0
46.26,999.9,3,-6,-98,33,-9,39.3,860.2325267042627,0.0
46.47,999.9,3,-3,-111,33,-2,39.3,3807.886552931954,0.0
46.69,999.9,4,-3,-111,33,-2,39.3,3807.886552931954,0.0
46.9,999.9,4,-3,-144,33,-4,39.3,28321.370023358686,0.0
47.11,999.9,2,4,-145,33,-11,39.38,31890.43743820395,0.0
47.33,999.9,-1,2,-145,33,-11,39.38,27018.51217221259,0.0
47.54,999.9,-1,2,-145,33,-11,39.38,27018.51217221259,0.0
47.75,999.9,-1,2,-144,33,-9,39.4,27762.744821072716,0.0
47.97,999.9,-2,0,-144,33,-9,39.39,14803.040228277434,0.0
48.18,999.9,-2,-1,-145,33,-12,39.39,360.5551275463989,0.0
48.39,999.9,-2,-1,-145,33,-12,39.39,360.5551275463989,0.0
48.6,999.9,-2,-1,-155,33,-3,39.39,360.5551275463989,0.0
48.82,999.9,-1,0,-158,33,-3,39.39,360.5551275463989,0.0
49.03,999.9,1,-3,152,33,-2,39.39,360.5551275463989,0.0
49.25,999.9,1,-3,152,33,-2,39.39,7253.2751223154355,0.0
49.46,999.9,3,-2,88,33,0,39.39,7002.856560004639,0.0
49.68,999.9,3,-2,88,33,0,39.39,7802.5636812524635,0.0
49.89,999.9,3,-2,88,34,-13,39.48,6500.769185258003,0.0
50.1,999.9,1,-1,73,34,-11,39.48,6500.769185258003,0.0
50.31,999.9,0,0,74,34,-9,39.47,6500.769185258003,0.0
50.52,999.9,0,0,74,34,-11,39.48,1513.2745950421556,0.0
50.74,999.9,1,0,74,34,3,39.48,728.0109889280518,0.0
50.95,999.9,1,0,74,34,-4,39.47,728.0109889280518,0.0
51.16,999.9,1,0,74,34,-13,39.47,728.0109889280518,0.0
51.37,999.9,1,0,74,34,-13,39.47,728.0109889280518,0.0
51.59,999.9,-12,-2,75,34,11,39.47,68400.29239703585,0.0
51.81,999.9,-13,-3,75,34,11,39.47,39439.19370372574,0.0
52.02,32.6,3,3,75,33,-8,39.4,27364.210202379312,-4449.546901334924
52.24,22.7,3,3,75,33,0,39.41,15062.86825275983,-46.08460273242845
52.45,17.7,0,2,75,33,-2,39.42,19772.961336127675,-23.48852707256947
52.67,17.7,1,1,75,33,-2,39.42,26795.89520803513,0.0
52.88,-100.0,1,1,74,33,9,39.42,48904.80548984936,-557.2155573966261
53.09,-100.0,2,1,74,33,9,39.37,96300.05192106595,0.0
53.31,-100.0,2,1,74,35,-7,39.33,18102.486017119307,0.0
53.52,-100.0,0,0,75,35,-7,39.32,18102.486017119307,0.0
53.74,-100.0,0,0,75,35,-7,39.32,18102.486017119307,0.0
53.96,-100.0,0,0,75,35,0,39.36,56100.356505106094,0.0
54.16,-100.0,0,0,75,37,-1,39.4,56100.356505106094,0.0
54.38,-100.0,0,0,75,37,-1,39.4,42004.28549564913,0.0
54.59,-100.0,0,0,75,37,0,39.4,42004.28549564913,0.0
